{
	"uscentral": {
		"city": "Iowa City",
		"region_name": "Iowa",
		"region": "IA",
		"area_code": 319,
		"time_zone": "America/Chicago",
		"longitude": "-91.571296691189453",
		"latitude": "41.64820098876953",
		"postal_code": "52246",
		"dma_code": 637,
		"country_code3": "USA",
		"country_code": "US",
		"country_name": "United States"		
	},
	"useast": {
		"city": "Boydton",
		"region_name": "Virginia",
		"region": "VA",
		"area_code": 434,
		"time_zone": "America/New_York",
		"longitude": "-78.37149810791016",
		"latitude": "36.664798736572266",
		"postal_code": "23917",
		"dma_code": 560,
		"country_code3": "USA",
		"country_code": "US",
		"country_name": "United States"	
	},
	"useast2": {
		"city": "Boydton",
		"region_name": "Virginia",
		"region": "VA",
		"area_code": 434,
		"time_zone": "America/New_York",
		"longitude": "-78.37149810791016",
		"latitude": "36.664798736572266",
		"postal_code": "23917",
		"dma_code": 560,
		"country_code3": "USA",
		"country_code": "US",
		"country_name": "United States"	
	},
	"usnorth": {
		"city": "Chicago",
		"region_name": "Illinois",
		"region": "IL",
		"area_code": 773,
		"time_zone": "America/Chicago",
		"longitude": "-87.69560241699219",
		"latitude": "42.007598876953125",
		"postal_code": "60645",
		"dma_code": 602,
		"country_code3": "USA",
		"country_code": "US",
		"country_name": "United States"
	},
	"ussouth": {
		"city": "Dallas",
		"region_name": "Texas",
		"region": "TX",
		"area_code": 214,
		"time_zone": "America/Chicago",
		"longitude": "-96.78829956054688",
		"latitude": "32.8018985629883",
		"postal_code": "75204",
		"dma_code": 623,
		"country_code3": "USA",
		"country_code": "US",
		"country_name": "United States"
	},
	"uswest": {
		"city": "San Francisco",
		"region_name": "California",
		"region": "CA",
		"area_code": 415,
		"time_zone": "America/Los_Angeles",
		"longitude": "-122.39839935302734",
		"latitude": "37.79890060424805",
		"postal_code": "94111",
		"dma_code": 807,
		"country_code3": "USA",
		"country_code": "US",
		"country_name": "United States"
	},
	"europenorth": {
		"city": "Dublin",
		"region_name": "Dublin",
		"region": "07",
		"area_code": 0,
		"time_zone": "Europe/Dublin",
		"longitude": "-6.24889993668",
		"latitude": "53.3330993652",
		"postal_code": "0",
		"dma_code": 0,
		"country_code": "IE",
		"country_name": "Ireland"
	},
	"europewest": {
		"city": "Amsterdam",
		"region_name": "Noord-Holland",
		"region": "07",
		"area_code": 0,
		"time_zone": "Europe/Amsterdam",
		"longitude": "4.902699947357178",
		"latitude": "52.366600036621094",
		"postal_code": "1018",
		"dma_code": 0,
		"country_code": "NL",
		"country_name": "Netherlands"
	},
	"asiaeast": {
		"city": "Hong Kong",
		"region_name": "",
		"region": "00",
		"area_code": 0,
		"time_zone": "Asia/Hong_Kong",
		"longitude": "114.1500015258789",
		"latitude": "22.283300399780273",
		"postal_code": "0",
		"dma_code": 0,
		"country_code3": "HKG",
		"country_code": "HK",
		"country_name": "Hong Kong"
	},
	"asiasoutheast": {
		"city": "Singapore",
		"region_name": "",
		"region": "00",
		"area_code": 0,
		"time_zone": "Asia/Singapore",
		"longitude": "103.85579681396484",
		"latitude": "1.2930999994277954",
		"postal_code": "0",
		"dma_code": 0,
		"country_code": "SG",
		"country_name": "Singapore"
	},
	"japaneast": {
		"city": "Saitama",
		"region_name": "Saitama",
		"region": "34",
		"area_code": 0,
		"time_zone": "Asia/Tokyo",
		"longitude": "139.64889526367188",
		"latitude": "35.85689926147461",
		"postal_code": "330-0063",
		"dma_code": 0,
		"country_code": "JP",
		"country_name": "Japan"
	},
	"japanwest": {
		"city": "Osaka",
		"region_name": "Osaka",
		"region": "32",
		"area_code": 0,
		"time_zone": "Asia/Tokyo",
		"longitude": "135.52000427246094",
		"latitude": "34.6864013671875",
		"postal_code": "540-0008",
		"dma_code": 0,
		"country_code": "JP",
		"country_name": "Japan"
	},
	"brazilsouth": {
		"city": "S\ufffdo Paulo",
		"region_name": "Sao Paulo",
		"region": "27",
		"area_code": 0,
		"time_zone": "America/Sao_paulo",
		"longitude": "-46.66579818725586",
		"latitude": "-23.47330093383789",
		"postal_code": "0",
		"dma_code": 0,
		"country_code3": "BRA",
		"country_code": "BR",
		"country_name": "Brazil"
	},
	"australiaeast": {
		"city": "Sydney",
		"region_name": "New South Wales",
		"region": "02",
		"area_code": 0,
		"time_zone": "Australia/Sydney",
		"longitude": "151.20159912109375",
		"latitude": "-33.86029815673828",
		"postal_code": "2000",
		"dma_code": 0,
		"country_code": "AU",
		"country_name": "Australia"
	},
	"australiasoutheast": {
		"city": "Melbourne",
		"region_name": "Victoria",
		"region": "07",
		"area_code": 0,
		"time_zone": "Australia/Melbourne",
		"longitude": "144.9633026123047",
		"latitude": "-37.81399917602539",
		"postal_code": "3000",
		"dma_code": 0,
		"country_code": "AU",
		"country_name": "Australia"
	},
	"indiacentral": {
		"city": "Pune",
		"region_name": "Maharashtra",
		"region": "16",
		"area_code": 0,
		"time_zone": "Asia/Kolkata",
		"longitude": "73.86669921875",
		"latitude": "18.533300399780273",
		"postal_code": "411001",
		"dma_code": 0,
		"country_code": "IN",
		"country_name": "India"
	},
	"indiasouth": {
		"city": "Chennai",
		"region_name": "Tamil Nadu",
		"region": "25",
		"area_code": 0,
		"time_zone": "Asia/Kolkata",
		"longitude": "80.2833023071289",
		"latitude": "13.0832996384082",
		"postal_code": "0",
		"dma_code": 0,
		"country_code3": "IND",
		"country_code": "IN",
		"country_name": "India"
	},
	"indiawest": {
		"city": "Mumbai",
		"region_name": "Maharashtra",
		"region": "16",
		"area_code": 0,
		"time_zone": "Asia/Kolkata",
		"longitude": "72.82579803466797",
		"latitude": "18.975000381469727",
		"postal_code": "0",
		"dma_code": 0,
		"country_code": "IN",
		"country_name": "India"
	}
}
